{
    "LIAF": {
        "icao": "LIAF",
        "iata": "",
        "name": "Foligno Airport",
        "city": "Foligno",
        "state": "Umbria",
        "country": "IT",
        "elevation": 730,
        "lat": 42.932800293,
        "lon": 12.710100174,
        "tz": "Europe\/Rome"
    },
    "LIAP": {
        "icao": "LIAP",
        "iata": "QAQ",
        "name": "L'Aquila \/ Preturo Airport",
        "city": "L'Aquila",
        "state": "Abruzzo",
        "country": "IT",
        "elevation": 2211,
        "lat": 42.379901886,
        "lon": 13.3092002869,
        "tz": "Europe\/Rome"
    },
    "LIAQ": {
        "icao": "LIAQ",
        "iata": "",
        "name": "Aquino Airport",
        "city": "Aquino",
        "state": "Latium",
        "country": "IT",
        "elevation": 361,
        "lat": 41.4863014221,
        "lon": 13.7187995911,
        "tz": "Europe\/Rome"
    },
    "LIAU": {
        "icao": "LIAU",
        "iata": "",
        "name": "Capua Airport",
        "city": "Capua",
        "state": "Campania",
        "country": "IT",
        "elevation": 64,
        "lat": 41.1160011292,
        "lon": 14.1780004501,
        "tz": "Europe\/Rome"
    },
    "LIBA": {
        "icao": "LIBA",
        "iata": "",
        "name": "Amendola Airport",
        "city": "Foggia",
        "state": "Apulia",
        "country": "IT",
        "elevation": 183,
        "lat": 41.5414009094,
        "lon": 15.7180995941,
        "tz": "Europe\/Rome"
    },
    "LIBC": {
        "icao": "LIBC",
        "iata": "CRV",
        "name": "Crotone Airport",
        "city": "Crotone",
        "state": "Calabria",
        "country": "IT",
        "elevation": 522,
        "lat": 38.9972000122,
        "lon": 17.0802001953,
        "tz": "Europe\/Rome"
    },
    "LIBD": {
        "icao": "LIBD",
        "iata": "BRI",
        "name": "Bari \/ Palese International Airport",
        "city": "Bari",
        "state": "Apulia",
        "country": "IT",
        "elevation": 177,
        "lat": 41.1389007568,
        "lon": 16.7605991364,
        "tz": "Europe\/Rome"
    },
    "LIBF": {
        "icao": "LIBF",
        "iata": "FOG",
        "name": "Foggia \/ Gino Lisa Airport",
        "city": "Foggia",
        "state": "Apulia",
        "country": "IT",
        "elevation": 265,
        "lat": 41.4328994751,
        "lon": 15.5349998474,
        "tz": "Europe\/Rome"
    },
    "LIBG": {
        "icao": "LIBG",
        "iata": "TAR",
        "name": "Taranto \/ Grottaglie Airport",
        "city": "Grottaglie",
        "state": "Apulia",
        "country": "IT",
        "elevation": 215,
        "lat": 40.5175018311,
        "lon": 17.4032001495,
        "tz": "Europe\/Rome"
    },
    "LIBN": {
        "icao": "LIBN",
        "iata": "LCC",
        "name": "Lecce Airport",
        "city": "",
        "state": "Apulia",
        "country": "IT",
        "elevation": 156,
        "lat": 40.239200592,
        "lon": 18.1333007813,
        "tz": "Europe\/Rome"
    },
    "LIBP": {
        "icao": "LIBP",
        "iata": "PSR",
        "name": "Pescara International Airport",
        "city": "Pescara",
        "state": "Abruzzo",
        "country": "IT",
        "elevation": 48,
        "lat": 42.4317016602,
        "lon": 14.1810998917,
        "tz": "Europe\/Rome"
    },
    "LIBR": {
        "icao": "LIBR",
        "iata": "BDS",
        "name": "Brindisi \/ Casale Airport",
        "city": "Brindisi",
        "state": "Apulia",
        "country": "IT",
        "elevation": 47,
        "lat": 40.6576004028,
        "lon": 17.9470005035,
        "tz": "Europe\/Rome"
    },
    "LIBV": {
        "icao": "LIBV",
        "iata": "",
        "name": "Gioia Del Colle Airport",
        "city": "Gioia Del Colle",
        "state": "Apulia",
        "country": "IT",
        "elevation": 1187,
        "lat": 40.7677993774,
        "lon": 16.9333000183,
        "tz": "Europe\/Rome"
    },
    "LIBX": {
        "icao": "LIBX",
        "iata": "",
        "name": "Martina Franca Air Force Base",
        "city": "Martina Franca",
        "state": "Apulia",
        "country": "IT",
        "elevation": 1467,
        "lat": 40.7000007629,
        "lon": 17.3330001831,
        "tz": "Europe\/Rome"
    },
    "LICA": {
        "icao": "LICA",
        "iata": "SUF",
        "name": "Lamezia Terme Airport",
        "city": "Lamezia Terme",
        "state": "Calabria",
        "country": "IT",
        "elevation": 39,
        "lat": 38.9053993225,
        "lon": 16.2423000336,
        "tz": "Europe\/Rome"
    },
    "LICB": {
        "icao": "LICB",
        "iata": "CIY",
        "name": "Comiso Airport Vincenzo Magliocco",
        "city": "Comiso",
        "state": "Sicily",
        "country": "IT",
        "elevation": 623,
        "lat": 36.9946010208,
        "lon": 14.6071815491,
        "tz": "Europe\/Rome"
    },
    "LICC": {
        "icao": "LICC",
        "iata": "CTA",
        "name": "Catania \/ Fontanarossa Airport",
        "city": "Catania",
        "state": "Sicily",
        "country": "IT",
        "elevation": 39,
        "lat": 37.4668006897,
        "lon": 15.0663995743,
        "tz": "Europe\/Rome"
    },
    "LICD": {
        "icao": "LICD",
        "iata": "LMP",
        "name": "Lampedusa Airport",
        "city": "Lampedusa",
        "state": "Sicily",
        "country": "IT",
        "elevation": 70,
        "lat": 35.4978981018,
        "lon": 12.6181001663,
        "tz": "Europe\/Rome"
    },
    "LICG": {
        "icao": "LICG",
        "iata": "PNL",
        "name": "Pantelleria Airport",
        "city": "Pantelleria",
        "state": "Sicily",
        "country": "IT",
        "elevation": 628,
        "lat": 36.8165016174,
        "lon": 11.9688997269,
        "tz": "Europe\/Rome"
    },
    "LICJ": {
        "icao": "LICJ",
        "iata": "PMO",
        "name": "Palermo \/ Punta Raisi Airport",
        "city": "Palermo",
        "state": "Sicily",
        "country": "IT",
        "elevation": 65,
        "lat": 38.1759986877,
        "lon": 13.0909996033,
        "tz": "Europe\/Rome"
    },
    "LICP": {
        "icao": "LICP",
        "iata": "",
        "name": "Palermo \/ Bocca Di Falco Airport",
        "city": "Palermo",
        "state": "Sicily",
        "country": "IT",
        "elevation": 345,
        "lat": 38.1108016968,
        "lon": 13.3133001328,
        "tz": "Europe\/Rome"
    },
    "LICR": {
        "icao": "LICR",
        "iata": "REG",
        "name": "Reggio Calabria Airport",
        "city": "Reggio Calabria",
        "state": "Calabria",
        "country": "IT",
        "elevation": 96,
        "lat": 38.0712013245,
        "lon": 15.651599884,
        "tz": "Europe\/Rome"
    },
    "LICT": {
        "icao": "LICT",
        "iata": "TPS",
        "name": "Trapani \/ Birgi Airport",
        "city": "Trapani",
        "state": "Sicily",
        "country": "IT",
        "elevation": 25,
        "lat": 37.9113998413,
        "lon": 12.4879999161,
        "tz": "Europe\/Rome"
    },
    "LICZ": {
        "icao": "LICZ",
        "iata": "NSY",
        "name": "Sigonella Airport",
        "city": "",
        "state": "Sicily",
        "country": "IT",
        "elevation": 79,
        "lat": 37.4016990662,
        "lon": 14.9224004745,
        "tz": "Europe\/Rome"
    },
    "LIDA": {
        "icao": "LIDA",
        "iata": "",
        "name": "Asiago Airport",
        "city": "Vicenza",
        "state": "Veneto",
        "country": "IT",
        "elevation": 3409,
        "lat": 45.8869018555,
        "lon": 11.5169000626,
        "tz": "Europe\/Rome"
    },
    "LIDB": {
        "icao": "LIDB",
        "iata": "BLX",
        "name": "Belluno Airport",
        "city": "Belluno",
        "state": "Veneto",
        "country": "IT",
        "elevation": 1240,
        "lat": 46.1674995422,
        "lon": 12.2479000092,
        "tz": "Europe\/Rome"
    },
    "LIDC": {
        "icao": "LIDC",
        "iata": "",
        "name": "Ca Negra Airport",
        "city": "Ca Negra",
        "state": "Veneto",
        "country": "IT",
        "elevation": 1,
        "lat": 45.0830001831,
        "lon": 12.1499996185,
        "tz": "Europe\/Rome"
    },
    "LIDE": {
        "icao": "LIDE",
        "iata": "",
        "name": "Reggio Emilia Airport",
        "city": "Reggio Emilia",
        "state": "Emilia-Romagna",
        "country": "IT",
        "elevation": 152,
        "lat": 44.698299408,
        "lon": 10.6627998352,
        "tz": "Europe\/Rome"
    },
    "LIDF": {
        "icao": "LIDF",
        "iata": "",
        "name": "Fano Airport",
        "city": "Fano",
        "state": "The-Marches",
        "country": "IT",
        "elevation": 54,
        "lat": 43.8260002136,
        "lon": 13.0275001526,
        "tz": "Europe\/Rome"
    },
    "LIDG": {
        "icao": "LIDG",
        "iata": "",
        "name": "Lugo Di Romagna Airport",
        "city": "Lugo",
        "state": "Emilia-Romagna",
        "country": "IT",
        "elevation": 62,
        "lat": 44.3982009888,
        "lon": 11.8548002243,
        "tz": "Europe\/Rome"
    },
    "LIDH": {
        "icao": "LIDH",
        "iata": "",
        "name": "Thiene Airport",
        "city": "Vicenza",
        "state": "Veneto",
        "country": "IT",
        "elevation": 335,
        "lat": 45.6757011414,
        "lon": 11.4965000153,
        "tz": "Europe\/Rome"
    },
    "LIDI": {
        "icao": "LIDI",
        "iata": "CDF",
        "name": "Cortina Airport",
        "city": "Cortina D'Ampezzo",
        "state": "Veneto",
        "country": "IT",
        "elevation": 4213,
        "lat": 46.5730018616,
        "lon": 12.1180000305,
        "tz": "Europe\/Rome"
    },
    "LIDL": {
        "icao": "LIDL",
        "iata": "",
        "name": "Legnago Airport",
        "city": "Legnago",
        "state": "Veneto",
        "country": "IT",
        "elevation": 30,
        "lat": 45.1332015991,
        "lon": 11.2922000885,
        "tz": "Europe\/Rome"
    },
    "LIDM": {
        "icao": "LIDM",
        "iata": "",
        "name": "Mantova Airport",
        "city": "Mantova",
        "state": "Lombardy",
        "country": "IT",
        "elevation": 57,
        "lat": 45.1358337402,
        "lon": 10.7944440842,
        "tz": "Europe\/Rome"
    },
    "LIDP": {
        "icao": "LIDP",
        "iata": "",
        "name": "Pavullo Airport",
        "city": "Pavullo",
        "state": "Emilia-Romagna",
        "country": "IT",
        "elevation": 2244,
        "lat": 44.3223991394,
        "lon": 10.831700325,
        "tz": "Europe\/Rome"
    },
    "LIDR": {
        "icao": "LIDR",
        "iata": "RAN",
        "name": "Ravenna Airport",
        "city": "Ravenna",
        "state": "Emilia-Romagna",
        "country": "IT",
        "elevation": 1,
        "lat": 44.3642997742,
        "lon": 12.2249002457,
        "tz": "Europe\/Rome"
    },
    "LIDT": {
        "icao": "LIDT",
        "iata": "ZIA",
        "name": "Trento \/ Mattarello Airport",
        "city": "Trento",
        "state": "Trentino-Alto-Adige",
        "country": "IT",
        "elevation": 610,
        "lat": 46.0214004517,
        "lon": 11.1241998672,
        "tz": "Europe\/Rome"
    },
    "LIDU": {
        "icao": "LIDU",
        "iata": "",
        "name": "Carpi \/ Budrione Airport",
        "city": "Modena",
        "state": "Emilia-Romagna",
        "country": "IT",
        "elevation": 69,
        "lat": 44.8352012634,
        "lon": 10.8716001511,
        "tz": "Europe\/Rome"
    },
    "LIDV": {
        "icao": "LIDV",
        "iata": "",
        "name": "Prati Vecchi D'Aguscello Airport",
        "city": "Ferrara",
        "state": "Emilia-Romagna",
        "country": "IT",
        "elevation": 20,
        "lat": 44.7902984619,
        "lon": 11.6691999435,
        "tz": "Europe\/Rome"
    },
    "LIDW": {
        "icao": "LIDW",
        "iata": "",
        "name": "Salgareda Carrer Airport",
        "city": "Salgareda",
        "state": "Veneto",
        "country": "IT",
        "elevation": 7,
        "lat": 45.6991996765,
        "lon": 12.5431003571,
        "tz": "Europe\/Rome"
    },
    "LIEA": {
        "icao": "LIEA",
        "iata": "AHO",
        "name": "Alghero \/ Fertilia Airport",
        "city": "Alghero",
        "state": "Sardinia",
        "country": "IT",
        "elevation": 87,
        "lat": 40.6320991516,
        "lon": 8.290769577,
        "tz": "Europe\/Rome"
    },
    "LIED": {
        "icao": "LIED",
        "iata": "DCI",
        "name": "Decimomannu Airport",
        "city": "Decimomannu",
        "state": "Sardinia",
        "country": "IT",
        "elevation": 100,
        "lat": 39.3541984558,
        "lon": 8.9724798203,
        "tz": "Europe\/Rome"
    },
    "LIEE": {
        "icao": "LIEE",
        "iata": "CAG",
        "name": "Cagliari \/ Elmas Airport",
        "city": "Cagliari",
        "state": "Sardinia",
        "country": "IT",
        "elevation": 13,
        "lat": 39.251499176,
        "lon": 9.0542802811,
        "tz": "Europe\/Rome"
    },
    "LIEO": {
        "icao": "LIEO",
        "iata": "OLB",
        "name": "Olbia \/ Costa Smeralda Airport",
        "city": "Olbia",
        "state": "Sardinia",
        "country": "IT",
        "elevation": 37,
        "lat": 40.8987007141,
        "lon": 9.5176296234,
        "tz": "Europe\/Rome"
    },
    "LIER": {
        "icao": "LIER",
        "iata": "FNU",
        "name": "Oristano \/ Fenosu Airport",
        "city": "Oristano",
        "state": "Sardinia",
        "country": "IT",
        "elevation": 36,
        "lat": 39.8942985535,
        "lon": 8.6403999329,
        "tz": "Europe\/Rome"
    },
    "LIET": {
        "icao": "LIET",
        "iata": "TTB",
        "name": "Tortoli' \/ Arbatax Airport",
        "city": "Arbatax",
        "state": "Sardinia",
        "country": "IT",
        "elevation": 23,
        "lat": 39.918800354,
        "lon": 9.6829795837,
        "tz": "Europe\/Rome"
    },
    "LILA": {
        "icao": "LILA",
        "iata": "",
        "name": "Alessandria Airport",
        "city": "Alessandria",
        "state": "Piedmont",
        "country": "IT",
        "elevation": 299,
        "lat": 44.925201416,
        "lon": 8.6251296997,
        "tz": "Europe\/Rome"
    },
    "LILB": {
        "icao": "LILB",
        "iata": "",
        "name": "Alzate Brianza Airport",
        "city": "Como",
        "state": "Lombardy",
        "country": "IT",
        "elevation": 1260,
        "lat": 45.770198822,
        "lon": 9.1607198715,
        "tz": "Europe\/Rome"
    },
    "LILC": {
        "icao": "LILC",
        "iata": "",
        "name": "Calcinate Del Pesce Airport",
        "city": "Varese",
        "state": "Lombardy",
        "country": "IT",
        "elevation": 797,
        "lat": 45.8097000122,
        "lon": 8.7680597305,
        "tz": "Europe\/Rome"
    },
    "LILE": {
        "icao": "LILE",
        "iata": "",
        "name": "Biella \/ Cerrione Airport",
        "city": "Biella",
        "state": "Piedmont",
        "country": "IT",
        "elevation": 920,
        "lat": 45.495300293,
        "lon": 8.1027803421,
        "tz": "Europe\/Rome"
    },
    "LILG": {
        "icao": "LILG",
        "iata": "",
        "name": "Vergiate Airport",
        "city": "Milano",
        "state": "Lombardy",
        "country": "IT",
        "elevation": 863,
        "lat": 45.7131996155,
        "lon": 8.6991195679,
        "tz": "Europe\/Rome"
    },
    "LILH": {
        "icao": "LILH",
        "iata": "",
        "name": "Voghera-Rivanazzano Airport",
        "city": "Voghera",
        "state": "Lombardy",
        "country": "IT",
        "elevation": 423,
        "lat": 44.9519996643,
        "lon": 9.0165300369,
        "tz": "Europe\/Rome"
    },
    "LILI": {
        "icao": "LILI",
        "iata": "",
        "name": "Vercelli Airport",
        "city": "Vercelli",
        "state": "Piedmont",
        "country": "IT",
        "elevation": 417,
        "lat": 45.3111991882,
        "lon": 8.4174203873,
        "tz": "Europe\/Rome"
    },
    "LILM": {
        "icao": "LILM",
        "iata": "",
        "name": "Casale Monferrato Airport",
        "city": "Casale Monferrato",
        "state": "Piedmont",
        "country": "IT",
        "elevation": 377,
        "lat": 45.1111984253,
        "lon": 8.456029892,
        "tz": "Europe\/Rome"
    },
    "LILN": {
        "icao": "LILN",
        "iata": "QVA",
        "name": "Varese \/ Venegono Airport",
        "city": "Varese",
        "state": "Lombardy",
        "country": "IT",
        "elevation": 1050,
        "lat": 45.7421989441,
        "lon": 8.8882303238,
        "tz": "Europe\/Rome"
    },
    "LILO": {
        "icao": "LILO",
        "iata": "",
        "name": "Sondrio Caiolo Airport",
        "city": "Caiolo",
        "state": "Lombardy",
        "country": "IT",
        "elevation": 899,
        "lat": 46.1542015076,
        "lon": 9.7980604172,
        "tz": "Europe\/Rome"
    },
    "LILQ": {
        "icao": "LILQ",
        "iata": "QMM",
        "name": "Massa Cinquale Airport",
        "city": "Marina Di Massa",
        "state": "Tuscany",
        "country": "IT",
        "elevation": 13,
        "lat": 43.986000061,
        "lon": 10.1428003311,
        "tz": "Europe\/Rome"
    },
    "LILR": {
        "icao": "LILR",
        "iata": "",
        "name": "Cremona \/ Migliaro Airport",
        "city": "Cremona",
        "state": "Lombardy",
        "country": "IT",
        "elevation": 161,
        "lat": 45.1674003601,
        "lon": 10.0018997192,
        "tz": "Europe\/Rome"
    },
    "LILV": {
        "icao": "LILV",
        "iata": "",
        "name": "Valbrembo Airport",
        "city": "Bergamo",
        "state": "Lombardy",
        "country": "IT",
        "elevation": 745,
        "lat": 45.7207984924,
        "lon": 9.5934696198,
        "tz": "Europe\/Rome"
    },
    "LIMA": {
        "icao": "LIMA",
        "iata": "",
        "name": "Torino \/ Aeritalia Airport",
        "city": "Torino",
        "state": "Piedmont",
        "country": "IT",
        "elevation": 943,
        "lat": 45.0863990784,
        "lon": 7.6033701897,
        "tz": "Europe\/Rome"
    },
    "LIMB": {
        "icao": "LIMB",
        "iata": "",
        "name": "Milano \/ Bresso Airport",
        "city": "Milano",
        "state": "Lombardy",
        "country": "IT",
        "elevation": 484,
        "lat": 45.5421981812,
        "lon": 9.20333004,
        "tz": "Europe\/Rome"
    },
    "LIMC": {
        "icao": "LIMC",
        "iata": "MXP",
        "name": "Malpensa International Airport",
        "city": "Milan",
        "state": "Lombardy",
        "country": "IT",
        "elevation": 768,
        "lat": 45.6305999756,
        "lon": 8.7281103134,
        "tz": "Europe\/Rome"
    },
    "LIME": {
        "icao": "LIME",
        "iata": "BGY",
        "name": "Bergamo \/ Orio Al Serio Airport",
        "city": "Bergamo",
        "state": "Lombardy",
        "country": "IT",
        "elevation": 782,
        "lat": 45.6739006042,
        "lon": 9.7041702271,
        "tz": "Europe\/Rome"
    },
    "LIMF": {
        "icao": "LIMF",
        "iata": "TRN",
        "name": "Torino \/ Caselle International Airport",
        "city": "Torino",
        "state": "Piedmont",
        "country": "IT",
        "elevation": 989,
        "lat": 45.2008018494,
        "lon": 7.6496300697,
        "tz": "Europe\/Rome"
    },
    "LIMG": {
        "icao": "LIMG",
        "iata": "ALL",
        "name": "Villanova D'Albenga International Airport",
        "city": "Albenga",
        "state": "Liguria",
        "country": "IT",
        "elevation": 148,
        "lat": 44.0505981445,
        "lon": 8.1274299622,
        "tz": "Europe\/Rome"
    },
    "LIMJ": {
        "icao": "LIMJ",
        "iata": "GOA",
        "name": "Genova \/ Sestri Cristoforo Colombo Airport",
        "city": "Genova",
        "state": "Liguria",
        "country": "IT",
        "elevation": 13,
        "lat": 44.4132995605,
        "lon": 8.8374996185,
        "tz": "Europe\/Rome"
    },
    "LIML": {
        "icao": "LIML",
        "iata": "LIN",
        "name": "Linate Airport",
        "city": "Milan",
        "state": "Lombardy",
        "country": "IT",
        "elevation": 353,
        "lat": 45.445098877,
        "lon": 9.2767400742,
        "tz": "Europe\/Rome"
    },
    "LIMN": {
        "icao": "LIMN",
        "iata": "",
        "name": "Cameri Airport",
        "city": "Cameri",
        "state": "Piedmont",
        "country": "IT",
        "elevation": 586,
        "lat": 45.5295982361,
        "lon": 8.6692199707,
        "tz": "Europe\/Rome"
    },
    "LIMP": {
        "icao": "LIMP",
        "iata": "PMF",
        "name": "Parma Airport",
        "city": "Parma",
        "state": "Emilia-Romagna",
        "country": "IT",
        "elevation": 161,
        "lat": 44.8245010376,
        "lon": 10.2964000702,
        "tz": "Europe\/Rome"
    },
    "LIMR": {
        "icao": "LIMR",
        "iata": "",
        "name": "Novi Ligure Glider Airport",
        "city": "Novi Ligure",
        "state": "Piedmont",
        "country": "IT",
        "elevation": 607,
        "lat": 44.7799987793,
        "lon": 8.7863903046,
        "tz": "Europe\/Rome"
    },
    "LIMS": {
        "icao": "LIMS",
        "iata": "QPZ",
        "name": "Piacenza Airport",
        "city": "Piacenza",
        "state": "Emilia-Romagna",
        "country": "IT",
        "elevation": 456,
        "lat": 44.9131011963,
        "lon": 9.7233295441,
        "tz": "Europe\/Rome"
    },
    "LIMW": {
        "icao": "LIMW",
        "iata": "AOT",
        "name": "Aosta Airport",
        "city": "Aosta",
        "state": "Aosta-Valley",
        "country": "IT",
        "elevation": 1791,
        "lat": 45.7384986877,
        "lon": 7.3687200546,
        "tz": "Europe\/Rome"
    },
    "LIMZ": {
        "icao": "LIMZ",
        "iata": "CUF",
        "name": "Cuneo \/ Levaldigi Airport",
        "city": "Cuneo",
        "state": "Piedmont",
        "country": "IT",
        "elevation": 1267,
        "lat": 44.547000885,
        "lon": 7.6232199669,
        "tz": "Europe\/Rome"
    },
    "LINL": {
        "icao": "LINL",
        "iata": "",
        "name": "Lecce \/ Lepore Airport",
        "city": "Lecce",
        "state": "Apulia",
        "country": "IT",
        "elevation": 59,
        "lat": 40.3576011658,
        "lon": 18.2938995361,
        "tz": "Europe\/Rome"
    },
    "LIPA": {
        "icao": "LIPA",
        "iata": "AVB",
        "name": "Aviano Air Base",
        "city": "Aviano",
        "state": "Friuli-Venezia-Giulia",
        "country": "IT",
        "elevation": 410,
        "lat": 46.0318984985,
        "lon": 12.5965003967,
        "tz": "Europe\/Rome"
    },
    "LIPB": {
        "icao": "LIPB",
        "iata": "BZO",
        "name": "Bolzano Airport",
        "city": "Bolzano",
        "state": "Trentino-Alto-Adige",
        "country": "IT",
        "elevation": 789,
        "lat": 46.4602012634,
        "lon": 11.3263998032,
        "tz": "Europe\/Rome"
    },
    "LIPC": {
        "icao": "LIPC",
        "iata": "",
        "name": "Cervia Air Force Base",
        "city": "Cervia",
        "state": "Emilia-Romagna",
        "country": "IT",
        "elevation": 18,
        "lat": 44.2242012024,
        "lon": 12.3072004318,
        "tz": "Europe\/Rome"
    },
    "LIPD": {
        "icao": "LIPD",
        "iata": "UDN",
        "name": "Udine \/ Campoformido Air Base",
        "city": "Udine",
        "state": "Friuli-Venezia-Giulia",
        "country": "IT",
        "elevation": 305,
        "lat": 46.0321998596,
        "lon": 13.1868000031,
        "tz": "Europe\/Rome"
    },
    "LIPE": {
        "icao": "LIPE",
        "iata": "BLQ",
        "name": "Bologna \/ Borgo Panigale Airport",
        "city": "Bologna",
        "state": "Emilia-Romagna",
        "country": "IT",
        "elevation": 123,
        "lat": 44.5354003906,
        "lon": 11.2887001038,
        "tz": "Europe\/Rome"
    },
    "LIPF": {
        "icao": "LIPF",
        "iata": "",
        "name": "Ferrara Airport",
        "city": "Ferrara",
        "state": "Emilia-Romagna",
        "country": "IT",
        "elevation": 20,
        "lat": 44.8160018921,
        "lon": 11.6134004593,
        "tz": "Europe\/Rome"
    },
    "LIPG": {
        "icao": "LIPG",
        "iata": "",
        "name": "Gorizia Airport",
        "city": "Gorizia",
        "state": "Friuli-Venezia-Giulia",
        "country": "IT",
        "elevation": 207,
        "lat": 45.9068984985,
        "lon": 13.5993003845,
        "tz": "Europe\/Ljubljana"
    },
    "LIPH": {
        "icao": "LIPH",
        "iata": "TSF",
        "name": "Treviso \/ Sant'Angelo Airport",
        "city": "Treviso",
        "state": "Veneto",
        "country": "IT",
        "elevation": 59,
        "lat": 45.648399353,
        "lon": 12.1943998337,
        "tz": "Europe\/Rome"
    },
    "LIPI": {
        "icao": "LIPI",
        "iata": "",
        "name": "Rivolto Air Base",
        "city": "Codroipo",
        "state": "Friuli-Venezia-Giulia",
        "country": "IT",
        "elevation": 179,
        "lat": 45.9786987305,
        "lon": 13.0493001938,
        "tz": "Europe\/Rome"
    },
    "LIPK": {
        "icao": "LIPK",
        "iata": "FRL",
        "name": "Forli Airport",
        "city": "Forli",
        "state": "Emilia-Romagna",
        "country": "IT",
        "elevation": 97,
        "lat": 44.1948013306,
        "lon": 12.0700998306,
        "tz": "Europe\/Rome"
    },
    "LIPL": {
        "icao": "LIPL",
        "iata": "",
        "name": "Ghedi Airport",
        "city": "Ghedi",
        "state": "Lombardy",
        "country": "IT",
        "elevation": 333,
        "lat": 45.4322013855,
        "lon": 10.2677001953,
        "tz": "Europe\/Rome"
    },
    "LIPM": {
        "icao": "LIPM",
        "iata": "",
        "name": "Modena \/ Marzaglia Airport",
        "city": "Modena",
        "state": "Emilia-Romagna",
        "country": "IT",
        "elevation": 184,
        "lat": 44.6348991394,
        "lon": 10.8101997375,
        "tz": "Europe\/Rome"
    },
    "LIPN": {
        "icao": "LIPN",
        "iata": "",
        "name": "Verona \/ Boscomantico Airport",
        "city": "Verona",
        "state": "Veneto",
        "country": "IT",
        "elevation": 286,
        "lat": 45.4720001221,
        "lon": 10.9279003143,
        "tz": "Europe\/Rome"
    },
    "LIPO": {
        "icao": "LIPO",
        "iata": "VBS",
        "name": "Brescia \/ Montichiari Airport",
        "city": "Brescia",
        "state": "Lombardy",
        "country": "IT",
        "elevation": 355,
        "lat": 45.4289016724,
        "lon": 10.3305997849,
        "tz": "Europe\/Rome"
    },
    "LIPQ": {
        "icao": "LIPQ",
        "iata": "TRS",
        "name": "Trieste \/ Ronchi Dei Legionari",
        "city": "Trieste",
        "state": "Friuli-Venezia-Giulia",
        "country": "IT",
        "elevation": 39,
        "lat": 45.8274993896,
        "lon": 13.4722003937,
        "tz": "Europe\/Rome"
    },
    "LIPR": {
        "icao": "LIPR",
        "iata": "RMI",
        "name": "Rimini \/ Miramare - Federico Fellini International Airport",
        "city": "Rimini",
        "state": "Emilia-Romagna",
        "country": "IT",
        "elevation": 40,
        "lat": 44.0203018188,
        "lon": 12.611700058,
        "tz": "Europe\/Rome"
    },
    "LIPS": {
        "icao": "LIPS",
        "iata": "",
        "name": "Istrana Airport",
        "city": "Istrana",
        "state": "Veneto",
        "country": "IT",
        "elevation": 137,
        "lat": 45.6848983765,
        "lon": 12.0829000473,
        "tz": "Europe\/Rome"
    },
    "LIPT": {
        "icao": "LIPT",
        "iata": "VIC",
        "name": "Vicenza Airport",
        "city": "Vicenza",
        "state": "Veneto",
        "country": "IT",
        "elevation": 128,
        "lat": 45.5733985901,
        "lon": 11.5295000076,
        "tz": "Europe\/Rome"
    },
    "LIPU": {
        "icao": "LIPU",
        "iata": "QPA",
        "name": "Padova Airport",
        "city": "Padova",
        "state": "Veneto",
        "country": "IT",
        "elevation": 44,
        "lat": 45.3958015442,
        "lon": 11.8479003906,
        "tz": "Europe\/Rome"
    },
    "LIPV": {
        "icao": "LIPV",
        "iata": "",
        "name": "Venezia \/ Lido - San Nicolo Airport",
        "city": "Venezia",
        "state": "Veneto",
        "country": "IT",
        "elevation": 13,
        "lat": 45.4282989502,
        "lon": 12.3880996704,
        "tz": "Europe\/Rome"
    },
    "LIPX": {
        "icao": "LIPX",
        "iata": "VRN",
        "name": "Verona \/ Villafranca Airport",
        "city": "Verona",
        "state": "Veneto",
        "country": "IT",
        "elevation": 239,
        "lat": 45.3956985474,
        "lon": 10.8885002136,
        "tz": "Europe\/Rome"
    },
    "LIPY": {
        "icao": "LIPY",
        "iata": "AOI",
        "name": "Ancona \/ Falconara Airport",
        "city": "Ancona",
        "state": "The-Marches",
        "country": "IT",
        "elevation": 49,
        "lat": 43.6162986755,
        "lon": 13.3622999191,
        "tz": "Europe\/Rome"
    },
    "LIPZ": {
        "icao": "LIPZ",
        "iata": "VCE",
        "name": "Venezia \/ Tessera -  Marco Polo Airport",
        "city": "Venezia",
        "state": "Veneto",
        "country": "IT",
        "elevation": 7,
        "lat": 45.5052986145,
        "lon": 12.3519001007,
        "tz": "Europe\/Rome"
    },
    "LIQB": {
        "icao": "LIQB",
        "iata": "QZO",
        "name": "Arezzo Airport",
        "city": "Arezzo",
        "state": "Tuscany",
        "country": "IT",
        "elevation": 814,
        "lat": 43.4558982849,
        "lon": 11.8470001221,
        "tz": "Europe\/Rome"
    },
    "LIQL": {
        "icao": "LIQL",
        "iata": "LCV",
        "name": "Lucca \/ Tassignano Airport",
        "city": "Lucca",
        "state": "Tuscany",
        "country": "IT",
        "elevation": 39,
        "lat": 43.8282012939,
        "lon": 10.5781002045,
        "tz": "Europe\/Rome"
    },
    "LIQN": {
        "icao": "LIQN",
        "iata": "QRT",
        "name": "Rieti Airport",
        "city": "Rieti",
        "state": "Latium",
        "country": "IT",
        "elevation": 1278,
        "lat": 42.4272003174,
        "lon": 12.8516998291,
        "tz": "Europe\/Rome"
    },
    "LIQS": {
        "icao": "LIQS",
        "iata": "SAY",
        "name": "Siena \/ Ampugnano Airport",
        "city": "Siena",
        "state": "Tuscany",
        "country": "IT",
        "elevation": 634,
        "lat": 43.2563018799,
        "lon": 11.2550001144,
        "tz": "Europe\/Rome"
    },
    "LIQW": {
        "icao": "LIQW",
        "iata": "",
        "name": "Sarzana \/ Luni Military Airport",
        "city": "Sarzana",
        "state": "Liguria",
        "country": "IT",
        "elevation": 45,
        "lat": 44.0880012512,
        "lon": 9.987950325,
        "tz": "Europe\/Rome"
    },
    "LIRA": {
        "icao": "LIRA",
        "iata": "CIA",
        "name": "Ciampino Airport",
        "city": "Roma",
        "state": "Latium",
        "country": "IT",
        "elevation": 427,
        "lat": 41.7994003296,
        "lon": 12.5949001312,
        "tz": "Europe\/Rome"
    },
    "LIRE": {
        "icao": "LIRE",
        "iata": "",
        "name": "Pratica Di Mare Airport",
        "city": "Pomezia",
        "state": "Latium",
        "country": "IT",
        "elevation": 41,
        "lat": 41.654499054,
        "lon": 12.4451999664,
        "tz": "Europe\/Rome"
    },
    "LIRF": {
        "icao": "LIRF",
        "iata": "FCO",
        "name": "Leonardo Da Vinci (Fiumicino) International Airport",
        "city": "Rome",
        "state": "Latium",
        "country": "IT",
        "elevation": 15,
        "lat": 41.8045005798,
        "lon": 12.2508001328,
        "tz": "Europe\/Rome"
    },
    "LIRG": {
        "icao": "LIRG",
        "iata": "",
        "name": "Guidonia Airport",
        "city": "Guidonia",
        "state": "Latium",
        "country": "IT",
        "elevation": 289,
        "lat": 41.9902992249,
        "lon": 12.7407999039,
        "tz": "Europe\/Rome"
    },
    "LIRH": {
        "icao": "LIRH",
        "iata": "QFR",
        "name": "Frosinone Military Airport",
        "city": "Frosinone",
        "state": "Latium",
        "country": "IT",
        "elevation": 0,
        "lat": 41.6464004517,
        "lon": 13.2997999191,
        "tz": "Europe\/Rome"
    },
    "LIRI": {
        "icao": "LIRI",
        "iata": "QSR",
        "name": "Salerno \/ Pontecagnano Airport",
        "city": "Salerno",
        "state": "Campania",
        "country": "IT",
        "elevation": 119,
        "lat": 40.6203994751,
        "lon": 14.9112997055,
        "tz": "Europe\/Rome"
    },
    "LIRJ": {
        "icao": "LIRJ",
        "iata": "EBA",
        "name": "Marina Di Campo Airport",
        "city": "Marina  Di Campo",
        "state": "Tuscany",
        "country": "IT",
        "elevation": 31,
        "lat": 42.7602996826,
        "lon": 10.23939991,
        "tz": "Europe\/Rome"
    },
    "LIRL": {
        "icao": "LIRL",
        "iata": "QLT",
        "name": "Latina Airport",
        "city": "Latina",
        "state": "Latium",
        "country": "IT",
        "elevation": 94,
        "lat": 41.5424003601,
        "lon": 12.9090003967,
        "tz": "Europe\/Rome"
    },
    "LIRM": {
        "icao": "LIRM",
        "iata": "",
        "name": "Grazzanise Airport",
        "city": "Caserta",
        "state": "Campania",
        "country": "IT",
        "elevation": 29,
        "lat": 41.060798645,
        "lon": 14.0818996429,
        "tz": "Europe\/Rome"
    },
    "LIRN": {
        "icao": "LIRN",
        "iata": "NAP",
        "name": "Napoli \/ Capodichino International Airport",
        "city": "Napoli",
        "state": "Campania",
        "country": "IT",
        "elevation": 294,
        "lat": 40.8860015869,
        "lon": 14.2908000946,
        "tz": "Europe\/Rome"
    },
    "LIRP": {
        "icao": "LIRP",
        "iata": "PSA",
        "name": "Pisa \/ San Giusto - Galileo Galilei International Airport",
        "city": "Pisa",
        "state": "Tuscany",
        "country": "IT",
        "elevation": 6,
        "lat": 43.6838989258,
        "lon": 10.3927001953,
        "tz": "Europe\/Rome"
    },
    "LIRQ": {
        "icao": "LIRQ",
        "iata": "FLR",
        "name": "Firenze \/ Peretola Airport",
        "city": "Firenze",
        "state": "Tuscany",
        "country": "IT",
        "elevation": 142,
        "lat": 43.8100013733,
        "lon": 11.2051000595,
        "tz": "Europe\/Rome"
    },
    "LIRS": {
        "icao": "LIRS",
        "iata": "GRS",
        "name": "Grosseto Airport",
        "city": "Grosetto",
        "state": "Tuscany",
        "country": "IT",
        "elevation": 17,
        "lat": 42.7597007751,
        "lon": 11.0719003677,
        "tz": "Europe\/Rome"
    },
    "LIRU": {
        "icao": "LIRU",
        "iata": "",
        "name": "Urbe Airport",
        "city": "Roma",
        "state": "Latium",
        "country": "IT",
        "elevation": 55,
        "lat": 41.9519004822,
        "lon": 12.4989004135,
        "tz": "Europe\/Rome"
    },
    "LIRV": {
        "icao": "LIRV",
        "iata": "",
        "name": "Viterbo Airport",
        "city": "Viterbo",
        "state": "Latium",
        "country": "IT",
        "elevation": 992,
        "lat": 42.4301986694,
        "lon": 12.0642004013,
        "tz": "Europe\/Rome"
    },
    "LIRZ": {
        "icao": "LIRZ",
        "iata": "PEG",
        "name": "Perugia \/ San Egidio Airport",
        "city": "Perugia",
        "state": "Umbria",
        "country": "IT",
        "elevation": 697,
        "lat": 43.0959014893,
        "lon": 12.5131998062,
        "tz": "Europe\/Rome"
    }
}